{"ast":null,"code":"export const dutchTrainStations=[{id:'1',name:'Amsterdam Centraal',code:'AMS',lat:52.3791,lng:4.9003,city:'Amsterdam'},{id:'2',name:'Amsterdam Zuid',code:'ASZ',lat:52.3389,lng:4.8739,city:'Amsterdam'},{id:'3',name:'Rotterdam Centraal',code:'RTD',lat:51.9249,lng:4.4690,city:'Rotterdam'},{id:'4',name:'Den Haag Centraal',code:'GVC',lat:52.0805,lng:4.3247,city:'Den Haag'},{id:'5',name:'Utrecht Centraal',code:'UT',lat:52.0893,lng:5.1101,city:'Utrecht'},{id:'6',name:'Eindhoven Centraal',code:'EHV',lat:51.4433,lng:5.4814,city:'Eindhoven'},{id:'7',name:'Tilburg',code:'TB',lat:51.5656,lng:5.0830,city:'Tilburg'},{id:'8',name:'Groningen',code:'GN',lat:53.2108,lng:6.5647,city:'Groningen'},{id:'9',name:'Maastricht',code:'MT',lat:50.8503,lng:5.7051,city:'Maastricht'},{id:'10',name:'Breda',code:'BD',lat:51.5953,lng:4.7811,city:'Breda'},{id:'11',name:'Nijmegen',code:'NM',lat:51.8434,lng:5.8531,city:'Nijmegen'},{id:'12',name:'Haarlem',code:'HLM',lat:52.3874,lng:4.6462,city:'Haarlem'},{id:'13',name:'Arnhem Centraal',code:'AH',lat:51.9851,lng:5.9288,city:'Arnhem'},{id:'14',name:'Leiden Centraal',code:'LDN',lat:52.1664,lng:4.4816,city:'Leiden'},{id:'15',name:'Zwolle',code:'ZL',lat:52.5047,lng:6.0916,city:'Zwolle'}];","map":{"version":3,"names":["dutchTrainStations","id","name","code","lat","lng","city"],"sources":["/workspace/src/data/trainStations.ts"],"sourcesContent":["import { TrainStation } from '../types';\n\nexport const dutchTrainStations: TrainStation[] = [\n  {\n    id: '1',\n    name: 'Amsterdam Centraal',\n    code: 'AMS',\n    lat: 52.3791,\n    lng: 4.9003,\n    city: 'Amsterdam'\n  },\n  {\n    id: '2',\n    name: 'Amsterdam Zuid',\n    code: 'ASZ',\n    lat: 52.3389,\n    lng: 4.8739,\n    city: 'Amsterdam'\n  },\n  {\n    id: '3',\n    name: 'Rotterdam Centraal',\n    code: 'RTD',\n    lat: 51.9249,\n    lng: 4.4690,\n    city: 'Rotterdam'\n  },\n  {\n    id: '4',\n    name: 'Den Haag Centraal',\n    code: 'GVC',\n    lat: 52.0805,\n    lng: 4.3247,\n    city: 'Den Haag'\n  },\n  {\n    id: '5',\n    name: 'Utrecht Centraal',\n    code: 'UT',\n    lat: 52.0893,\n    lng: 5.1101,\n    city: 'Utrecht'\n  },\n  {\n    id: '6',\n    name: 'Eindhoven Centraal',\n    code: 'EHV',\n    lat: 51.4433,\n    lng: 5.4814,\n    city: 'Eindhoven'\n  },\n  {\n    id: '7',\n    name: 'Tilburg',\n    code: 'TB',\n    lat: 51.5656,\n    lng: 5.0830,\n    city: 'Tilburg'\n  },\n  {\n    id: '8',\n    name: 'Groningen',\n    code: 'GN',\n    lat: 53.2108,\n    lng: 6.5647,\n    city: 'Groningen'\n  },\n  {\n    id: '9',\n    name: 'Maastricht',\n    code: 'MT',\n    lat: 50.8503,\n    lng: 5.7051,\n    city: 'Maastricht'\n  },\n  {\n    id: '10',\n    name: 'Breda',\n    code: 'BD',\n    lat: 51.5953,\n    lng: 4.7811,\n    city: 'Breda'\n  },\n  {\n    id: '11',\n    name: 'Nijmegen',\n    code: 'NM',\n    lat: 51.8434,\n    lng: 5.8531,\n    city: 'Nijmegen'\n  },\n  {\n    id: '12',\n    name: 'Haarlem',\n    code: 'HLM',\n    lat: 52.3874,\n    lng: 4.6462,\n    city: 'Haarlem'\n  },\n  {\n    id: '13',\n    name: 'Arnhem Centraal',\n    code: 'AH',\n    lat: 51.9851,\n    lng: 5.9288,\n    city: 'Arnhem'\n  },\n  {\n    id: '14',\n    name: 'Leiden Centraal',\n    code: 'LDN',\n    lat: 52.1664,\n    lng: 4.4816,\n    city: 'Leiden'\n  },\n  {\n    id: '15',\n    name: 'Zwolle',\n    code: 'ZL',\n    lat: 52.5047,\n    lng: 6.0916,\n    city: 'Zwolle'\n  }\n];"],"mappings":"AAEA,MAAO,MAAM,CAAAA,kBAAkC,CAAG,CAChD,CACEC,EAAE,CAAE,GAAG,CACPC,IAAI,CAAE,oBAAoB,CAC1BC,IAAI,CAAE,KAAK,CACXC,GAAG,CAAE,OAAO,CACZC,GAAG,CAAE,MAAM,CACXC,IAAI,CAAE,WACR,CAAC,CACD,CACEL,EAAE,CAAE,GAAG,CACPC,IAAI,CAAE,gBAAgB,CACtBC,IAAI,CAAE,KAAK,CACXC,GAAG,CAAE,OAAO,CACZC,GAAG,CAAE,MAAM,CACXC,IAAI,CAAE,WACR,CAAC,CACD,CACEL,EAAE,CAAE,GAAG,CACPC,IAAI,CAAE,oBAAoB,CAC1BC,IAAI,CAAE,KAAK,CACXC,GAAG,CAAE,OAAO,CACZC,GAAG,CAAE,MAAM,CACXC,IAAI,CAAE,WACR,CAAC,CACD,CACEL,EAAE,CAAE,GAAG,CACPC,IAAI,CAAE,mBAAmB,CACzBC,IAAI,CAAE,KAAK,CACXC,GAAG,CAAE,OAAO,CACZC,GAAG,CAAE,MAAM,CACXC,IAAI,CAAE,UACR,CAAC,CACD,CACEL,EAAE,CAAE,GAAG,CACPC,IAAI,CAAE,kBAAkB,CACxBC,IAAI,CAAE,IAAI,CACVC,GAAG,CAAE,OAAO,CACZC,GAAG,CAAE,MAAM,CACXC,IAAI,CAAE,SACR,CAAC,CACD,CACEL,EAAE,CAAE,GAAG,CACPC,IAAI,CAAE,oBAAoB,CAC1BC,IAAI,CAAE,KAAK,CACXC,GAAG,CAAE,OAAO,CACZC,GAAG,CAAE,MAAM,CACXC,IAAI,CAAE,WACR,CAAC,CACD,CACEL,EAAE,CAAE,GAAG,CACPC,IAAI,CAAE,SAAS,CACfC,IAAI,CAAE,IAAI,CACVC,GAAG,CAAE,OAAO,CACZC,GAAG,CAAE,MAAM,CACXC,IAAI,CAAE,SACR,CAAC,CACD,CACEL,EAAE,CAAE,GAAG,CACPC,IAAI,CAAE,WAAW,CACjBC,IAAI,CAAE,IAAI,CACVC,GAAG,CAAE,OAAO,CACZC,GAAG,CAAE,MAAM,CACXC,IAAI,CAAE,WACR,CAAC,CACD,CACEL,EAAE,CAAE,GAAG,CACPC,IAAI,CAAE,YAAY,CAClBC,IAAI,CAAE,IAAI,CACVC,GAAG,CAAE,OAAO,CACZC,GAAG,CAAE,MAAM,CACXC,IAAI,CAAE,YACR,CAAC,CACD,CACEL,EAAE,CAAE,IAAI,CACRC,IAAI,CAAE,OAAO,CACbC,IAAI,CAAE,IAAI,CACVC,GAAG,CAAE,OAAO,CACZC,GAAG,CAAE,MAAM,CACXC,IAAI,CAAE,OACR,CAAC,CACD,CACEL,EAAE,CAAE,IAAI,CACRC,IAAI,CAAE,UAAU,CAChBC,IAAI,CAAE,IAAI,CACVC,GAAG,CAAE,OAAO,CACZC,GAAG,CAAE,MAAM,CACXC,IAAI,CAAE,UACR,CAAC,CACD,CACEL,EAAE,CAAE,IAAI,CACRC,IAAI,CAAE,SAAS,CACfC,IAAI,CAAE,KAAK,CACXC,GAAG,CAAE,OAAO,CACZC,GAAG,CAAE,MAAM,CACXC,IAAI,CAAE,SACR,CAAC,CACD,CACEL,EAAE,CAAE,IAAI,CACRC,IAAI,CAAE,iBAAiB,CACvBC,IAAI,CAAE,IAAI,CACVC,GAAG,CAAE,OAAO,CACZC,GAAG,CAAE,MAAM,CACXC,IAAI,CAAE,QACR,CAAC,CACD,CACEL,EAAE,CAAE,IAAI,CACRC,IAAI,CAAE,iBAAiB,CACvBC,IAAI,CAAE,KAAK,CACXC,GAAG,CAAE,OAAO,CACZC,GAAG,CAAE,MAAM,CACXC,IAAI,CAAE,QACR,CAAC,CACD,CACEL,EAAE,CAAE,IAAI,CACRC,IAAI,CAAE,QAAQ,CACdC,IAAI,CAAE,IAAI,CACVC,GAAG,CAAE,OAAO,CACZC,GAAG,CAAE,MAAM,CACXC,IAAI,CAAE,QACR,CAAC,CACF","ignoreList":[]},"metadata":{},"sourceType":"module","externalDependencies":[]}